,City,Lat,Lng,Max Temp ˚F,Humidity,Cloudiness,Wind Speed,Country,Date
0,Abnūb,27.2696,31.1511,93.2,26,0,10.36,EG,2021-04-20 18:28:22
1,Abu Dhabi,24.4667,54.3667,80.6,61,0,4.61,AE,2021-04-20 18:30:58
2,Abéché,13.8292,20.8324,90.01,8,0,7.4,TD,2021-04-20 18:30:49
3,Abū Zabad,12.35,29.25,93.76,9,14,9.64,SD,2021-04-20 18:29:01
4,Ahipara,-35.1667,173.1667,60.21,94,27,4.61,NZ,2021-04-20 18:32:15
5,Airai,-8.9266,125.4092,57.24,93,39,0.63,TL,2021-04-20 18:28:15
6,Ajdabiya,30.7554,20.2263,60.75,60,5,12.24,LY,2021-04-20 18:30:57
7,Aklavik,68.2191,-135.0107,23.0,86,90,11.5,CA,2021-04-20 18:29:22
8,Aksu,41.1231,80.2644,63.27,34,11,5.93,CN,2021-04-20 18:30:43
9,Akureyri,65.6835,-18.0878,39.2,45,40,9.22,IS,2021-04-20 18:28:34
10,Al Bardīyah,31.7561,25.0865,60.15,69,0,11.34,LY,2021-04-20 18:34:26
11,Albania,41.0,20.0,51.8,71,20,4.61,AL,2021-04-20 18:32:02
12,Albany,42.6001,-73.9662,55.0,50,98,3.0,US,2021-04-20 18:28:30
13,Alice Springs,-23.7,133.8833,48.2,57,0,5.75,AU,2021-04-20 18:33:59
14,Almaznyy,48.0448,40.045,50.0,93,40,8.95,RU,2021-04-20 18:34:51
15,Alofi,-19.0595,-169.9187,80.67,78,27,13.85,NU,2021-04-20 18:28:18
16,Amahai,-3.3333,128.9167,78.31,86,100,2.19,ID,2021-04-20 18:28:15
17,Amapá,1.0,-52.0,73.49,93,100,2.3,BR,2021-04-20 18:30:33
18,Amazar,53.858,120.875,28.42,69,11,4.43,RU,2021-04-20 18:34:56
19,Ambanja,-13.6833,48.45,76.71,88,92,2.64,MG,2021-04-20 18:29:32
20,Ambilobe,-13.2,49.05,76.57,82,94,2.93,MG,2021-04-20 18:29:24
21,Anadyr,64.75,177.4833,14.0,85,40,4.47,RU,2021-04-20 18:28:41
22,Ancud,-41.8697,-73.8203,52.0,93,90,5.75,CL,2021-04-20 18:33:43
23,Angoche,-16.2325,39.9086,74.98,80,61,9.13,MZ,2021-04-20 18:32:18
24,Aragarças,-15.8975,-52.2508,87.8,51,40,2.3,BR,2021-04-20 18:30:31
25,Arman',59.7,150.1667,35.15,83,100,16.93,RU,2021-04-20 18:29:14
26,Arraial do Cabo,-22.9661,-42.0278,78.8,78,20,27.63,BR,2021-04-20 18:32:10
27,Arrondissement de Vire,48.9167,-0.8333,53.6,62,0,5.75,FR,2021-04-20 18:31:39
28,Assiut,27.181,31.1837,91.4,24,0,13.8,EG,2021-04-20 18:31:16
29,Aswān,24.0934,32.907,94.51,13,37,4.52,EG,2021-04-20 18:28:58
30,Asău,46.4333,26.4,46.99,59,99,3.44,RO,2021-04-20 18:30:26
31,Atbasar,51.8,68.3333,30.15,48,0,5.14,KZ,2021-04-20 18:34:15
32,Athabasca,54.7169,-113.2854,48.2,29,44,5.75,CA,2021-04-20 18:30:05
33,Atuona,-9.8,-139.0333,80.6,73,20,19.1,PF,2021-04-20 18:28:24
34,Aurora,39.7294,-104.8319,33.01,50,20,4.61,US,2021-04-20 18:30:06
35,Avarua,-21.2078,-159.775,77.0,78,29,9.22,CK,2021-04-20 18:28:40
36,Avera,33.194,-82.5271,73.4,46,90,10.36,US,2021-04-20 18:32:16
37,Ayan,56.45,138.1667,25.72,75,88,10.45,RU,2021-04-20 18:34:25
38,Aykino,62.2248,49.9922,36.3,66,12,2.48,RU,2021-04-20 18:31:37
39,Baghdad,33.3406,44.4009,82.4,32,0,4.61,IQ,2021-04-20 18:28:16
40,Baie-Saint-Paul,47.4411,-70.4986,48.2,100,100,9.22,CA,2021-04-20 18:23:51
41,Bako,5.7833,36.5667,70.12,54,88,4.18,ET,2021-04-20 18:31:25
42,Balabac,7.9868,117.0645,80.2,81,100,11.95,PH,2021-04-20 18:34:15
43,Balkhash,46.844,74.9804,31.71,51,100,25.97,KZ,2021-04-20 18:30:22
44,Bambanglipuro,-7.95,110.2833,74.48,83,1,3.98,ID,2021-04-20 18:29:07
45,Bambous Virieux,-20.3428,57.7575,78.8,89,75,5.86,MU,2021-04-20 18:29:21
46,Barcelona,41.3888,2.159,59.0,88,75,9.22,ES,2021-04-20 18:28:22
47,Barra de Tecoanapa,16.5167,-98.75,84.63,48,89,9.98,MX,2021-04-20 18:34:25
48,Barrow,71.2906,-156.7887,12.2,79,1,17.27,US,2021-04-20 18:28:22
49,Baruun-Urt,46.6806,113.2792,57.79,17,100,15.32,MN,2021-04-20 18:34:33
50,Bathsheba,13.2167,-59.5167,84.2,54,20,24.16,BB,2021-04-20 18:29:05
51,Baykit,61.67,96.37,18.03,97,100,1.21,RU,2021-04-20 18:28:58
52,Belaya Gora,68.5333,146.4167,4.75,100,90,4.7,RU,2021-04-20 18:28:30
53,Bengkulu,-3.8004,102.2655,76.21,88,61,4.25,ID,2021-04-20 18:31:12
54,Bereda,43.2686,-7.5406,54.0,99,33,1.01,ES,2021-04-20 18:28:43
55,Beringovskiy,63.05,179.3167,13.59,89,15,3.47,RU,2021-04-20 18:33:39
56,Berlevåg,70.8578,29.0864,46.4,46,0,31.07,NO,2021-04-20 18:31:54
57,Bethel,41.3712,-73.414,73.0,28,40,19.57,US,2021-04-20 18:29:06
58,Biak,-0.9131,122.8766,75.96,85,94,2.89,ID,2021-04-20 18:30:59
59,Bichena,10.45,38.2,63.27,45,93,8.52,ET,2021-04-20 18:28:47
60,Bielsk Podlaski,52.7651,23.1865,50.0,56,98,1.88,PL,2021-04-20 18:33:37
61,Bima,-8.4667,118.7167,71.55,86,99,3.96,ID,2021-04-20 18:28:22
62,Bintulu,3.1667,113.0333,77.0,88,20,6.91,MY,2021-04-20 18:28:30
63,Bismarck,46.8083,-100.7837,33.8,69,90,16.11,US,2021-04-20 18:34:53
64,Bluff,-46.6,168.3333,51.01,82,31,1.01,NZ,2021-04-20 18:28:26
65,Bojnourd,37.4747,57.329,60.8,44,0,6.91,IR,2021-04-20 18:30:11
66,Bonavista,48.6499,-53.1147,37.4,93,100,9.22,CA,2021-04-20 18:33:31
67,Botshabelo,-29.2702,26.7052,59.0,55,0,3.44,ZA,2021-04-20 18:29:31
68,Bowen,-20.0167,148.2333,71.6,88,75,4.61,AU,2021-04-20 18:33:36
69,Bredasdorp,-34.5322,20.0403,55.4,94,28,2.3,ZA,2021-04-20 18:28:23
70,Broken Hill,-31.95,141.4333,46.4,71,0,8.05,AU,2021-04-20 18:32:29
71,Broome,42.2506,-75.833,53.01,76,90,9.22,US,2021-04-20 18:28:50
72,Brownfield,33.1812,-102.2744,46.0,52,90,17.27,US,2021-04-20 18:32:31
73,Brownsville,25.9018,-97.4975,80.6,41,20,8.05,US,2021-04-20 18:28:13
74,Bryan,30.6744,-96.37,79.0,41,1,6.91,US,2021-04-20 18:33:24
75,Buala,-8.145,159.5921,80.67,81,88,3.13,SB,2021-04-20 18:30:26
76,Buba,11.5833,-15.0,85.59,47,3,11.92,GW,2021-04-20 18:34:50
77,Bubaque,11.2833,-15.8333,78.48,72,13,18.23,GW,2021-04-20 18:29:17
78,Bunia,1.5667,30.25,65.14,91,97,1.74,CD,2021-04-20 18:28:12
79,Buraidah,26.326,43.975,82.4,28,0,4.61,SA,2021-04-20 18:29:52
80,Burnie,-41.0667,145.9167,37.99,83,0,1.99,AU,2021-04-20 18:32:25
81,Busselton,-33.65,115.3333,48.0,88,14,9.69,AU,2021-04-20 18:28:29
82,Butaritari,3.0707,172.7902,80.85,78,100,16.17,KI,2021-04-20 18:30:10
83,Bǝrdǝ,40.3744,47.1267,74.08,48,100,6.38,AZ,2021-04-20 18:34:19
84,Cabo San Lucas,22.8909,-109.9124,80.01,68,1,6.91,MX,2021-04-20 18:28:32
85,Cairns,-16.9167,145.7667,73.99,100,90,5.91,AU,2021-04-20 18:29:14
86,Calama,-22.4667,-68.9333,69.8,19,0,21.85,CL,2021-04-20 18:30:41
87,Calvinia,-31.4707,19.776,70.83,34,35,2.66,ZA,2021-04-20 18:31:28
88,Camacha,33.0833,-16.3333,66.2,68,20,8.05,PT,2021-04-20 18:28:29
89,Campoverde,-8.4753,-74.8058,87.8,62,40,6.91,PE,2021-04-20 18:34:52
90,Cap Malheureux,-19.9842,57.6142,77.0,83,100,3.0,MU,2021-04-20 18:28:53
91,Cape Town,-33.9258,18.4232,64.0,88,0,6.91,ZA,2021-04-20 18:27:23
92,Caravelas,-17.7125,-39.2481,82.35,64,94,5.01,BR,2021-04-20 18:34:51
93,Carnarvon,-24.8667,113.6333,69.8,73,0,16.11,AU,2021-04-20 18:28:57
94,Castelldefels,41.2779,1.9703,59.0,88,75,9.22,ES,2021-04-20 18:33:31
95,Castro,-24.7911,-50.0119,71.2,48,33,3.89,BR,2021-04-20 18:28:38
96,Caxito,-8.5785,13.6643,78.8,89,40,2.3,AO,2021-04-20 18:34:54
97,Cayenne,4.9333,-52.3333,80.6,83,75,10.36,GF,2021-04-20 18:28:45
98,Celestún,20.8667,-90.4,83.66,70,36,9.15,MX,2021-04-20 18:32:27
99,Chabahar,25.2919,60.643,81.75,69,0,13.33,IR,2021-04-20 18:28:16
100,Champerico,14.3,-91.9167,89.6,70,75,6.91,GT,2021-04-20 18:29:36
101,Chapais,49.7834,-74.8492,41.0,56,90,13.8,CA,2021-04-20 18:25:14
102,Charleston,32.7766,-79.9309,73.4,49,20,11.5,US,2021-04-20 18:27:47
103,Chauk,20.8833,94.8167,85.59,49,0,6.13,MM,2021-04-20 18:34:16
104,Chekmagush,55.1319,54.6556,39.85,38,0,3.13,RU,2021-04-20 18:28:39
105,Chern',53.4523,36.9145,36.88,96,100,12.06,RU,2021-04-20 18:29:19
106,Cherskiy,68.75,161.3,29.07,70,60,16.13,RU,2021-04-20 18:28:59
107,Chilca,-12.5211,-76.7372,73.4,68,0,12.66,PE,2021-04-20 18:33:51
108,Chokurdakh,70.6333,147.9167,12.65,99,96,3.76,RU,2021-04-20 18:24:15
109,Chokwé,-24.5333,32.9833,66.83,82,0,5.84,MZ,2021-04-20 18:32:14
110,Chongwe,-15.3292,28.682,57.85,90,18,4.09,ZM,2021-04-20 18:30:51
111,Chui,-33.6971,-53.4616,71.29,63,36,14.0,UY,2021-04-20 18:29:43
112,Cidreira,-30.1811,-50.2056,73.33,56,58,10.47,BR,2021-04-20 18:29:03
113,Clonakilty,51.6231,-8.8706,51.01,87,75,1.14,IE,2021-04-20 18:34:20
114,Clyde River,70.4692,-68.5914,6.8,85,20,4.61,CA,2021-04-20 18:30:47
115,Coahuayana Viejo,18.7333,-103.6833,84.2,16,20,9.22,MX,2021-04-20 18:31:55
116,Codrington,-38.2667,141.9667,51.57,52,78,6.02,AU,2021-04-20 18:28:48
117,Coffs Harbour,-30.3,153.1333,50.0,93,0,4.61,AU,2021-04-20 18:31:38
118,Coihueco,-36.6167,-71.8333,66.2,48,40,8.05,CL,2021-04-20 18:33:48
119,Conceição do Araguaia,-8.2578,-49.2647,89.6,55,0,5.75,BR,2021-04-20 18:29:12
120,Constitución,-35.3333,-72.4167,58.1,87,100,20.11,CL,2021-04-20 18:32:32
121,Coos Bay,43.3665,-124.2179,57.99,82,40,12.66,US,2021-04-20 18:32:29
122,Coquimbo,-29.9533,-71.3436,64.4,55,75,13.8,CL,2021-04-20 18:28:19
123,Coruripe,-10.1256,-36.1756,82.2,71,66,11.12,BR,2021-04-20 18:34:22
124,Cowra,-33.8333,148.6833,42.01,92,72,3.0,AU,2021-04-20 18:32:11
125,Coyhaique,-45.5752,-72.0662,48.2,76,90,5.75,CL,2021-04-20 18:29:49
126,Cuamba,-14.8031,36.5372,68.14,85,100,6.8,MZ,2021-04-20 18:31:54
127,Cēsis,57.3119,25.2746,53.01,60,100,1.01,LV,2021-04-20 18:29:57
128,Dali,25.7,100.1833,51.4,61,0,5.68,CN,2021-04-20 18:33:19
129,Danshui,22.7984,114.4672,75.0,92,83,1.01,CN,2021-04-20 18:31:52
130,Denpasar,-8.65,115.2167,78.8,83,20,4.61,ID,2021-04-20 18:32:19
131,Departamento de Maldonado,-34.6667,-54.9167,73.99,64,75,16.11,UY,2021-04-20 18:33:49
132,Deputatsky,69.3,139.9,3.49,97,100,2.95,RU,2021-04-20 18:31:53
133,Diamantino,-14.4086,-56.4461,85.84,56,20,3.24,BR,2021-04-20 18:32:40
134,Dibulla,11.2725,-73.3091,91.6,49,99,12.48,CO,2021-04-20 18:31:34
135,Dikson,73.5069,80.5464,4.33,87,100,19.26,RU,2021-04-20 18:29:56
136,Dingle,10.9995,122.6711,77.0,83,100,7.34,PH,2021-04-20 18:28:31
137,Diphu,25.8333,93.4333,69.84,62,2,1.54,IN,2021-04-20 18:31:54
138,Donje Dubrave,44.4827,18.6791,48.2,71,40,3.44,BA,2021-04-20 18:30:23
139,Dunedin,-45.8742,170.5036,52.0,73,65,1.01,NZ,2021-04-20 18:28:48
140,Durusu,41.3053,28.6767,53.6,82,20,5.75,TR,2021-04-20 18:30:29
141,Dzilam González,21.2833,-88.9333,83.03,69,90,7.96,MX,2021-04-20 18:31:48
142,East London,-33.0153,27.9116,64.4,88,20,13.8,ZA,2021-04-20 18:29:06
143,Eaton Socon,52.2175,-0.2893,57.99,67,58,5.77,GB,2021-04-20 18:33:33
144,Eenhana,-17.4667,16.3333,71.6,49,81,2.3,NA,2021-04-20 18:31:58
145,Egvekinot,66.3167,-179.1667,13.3,77,21,1.19,RU,2021-04-20 18:31:59
146,El Bagre,7.5927,-74.8086,90.36,59,44,3.91,CO,2021-04-20 18:26:20
147,Ellisras,-23.6649,27.7443,67.48,42,19,7.61,ZA,2021-04-20 18:29:13
148,Emilio Carranza,19.9711,-96.6114,81.43,62,100,15.12,MX,2021-04-20 18:32:28
149,Erzincan Province,39.75,39.5,60.8,67,75,8.05,TR,2021-04-20 18:29:33
150,Esim,4.8699,-2.2405,81.66,80,64,7.81,GH,2021-04-20 18:30:24
151,Esperance,-33.8667,121.9,55.4,94,90,6.91,AU,2021-04-20 18:32:10
152,Eston,51.1501,-108.7514,41.0,26,20,10.36,CA,2021-04-20 18:24:18
153,Eureka,40.8021,-124.1637,54.0,89,76,8.99,US,2021-04-20 18:32:09
154,Eyl,7.9803,49.8164,82.78,77,95,12.53,SO,2021-04-20 18:28:30
155,Fairbanks,64.8378,-147.7164,39.99,44,1,12.66,US,2021-04-20 18:30:03
156,Fare,-16.7,-151.0167,81.57,72,85,12.97,PF,2021-04-20 18:34:19
157,Faya,18.3851,42.4509,66.2,63,20,5.75,SA,2021-04-20 18:32:05
158,Flin Flon,54.7682,-101.865,35.6,44,75,10.36,CA,2021-04-20 18:28:21
159,Flinders,-34.5833,150.8552,59.0,67,39,4.0,AU,2021-04-20 18:24:10
160,Fort Nelson,58.8053,-122.7002,55.4,30,20,6.91,CA,2021-04-20 18:29:15
161,Fortuna,40.5982,-124.1573,52.0,100,75,12.66,US,2021-04-20 18:32:44
162,Fortuna Foothills,32.6578,-114.4119,90.0,13,1,13.8,US,2021-04-20 18:34:16
163,Franca,-20.5386,-47.4008,79.11,31,0,8.72,BR,2021-04-20 18:29:50
164,Fuling,29.7022,107.3919,61.5,93,100,1.52,CN,2021-04-20 18:34:55
165,Garoowe,8.4054,48.4845,79.83,69,100,17.54,SO,2021-04-20 18:34:54
166,Gatton,-27.55,152.2833,57.0,93,0,3.04,AU,2021-04-20 18:30:31
167,Gaza,31.5,34.4667,70.0,100,0,7.78,PS,2021-04-20 18:33:19
168,Gazojak,41.1875,61.4036,60.06,48,9,17.2,TM,2021-04-20 18:34:51
169,George Town,5.4112,100.3354,82.0,89,20,3.44,MY,2021-04-20 18:24:05
170,Geraldton,-28.7667,114.6,59.0,82,0,12.66,AU,2021-04-20 18:32:11
171,Gizo Government Station,-8.103,156.8419,82.8,74,16,4.41,SB,2021-04-20 18:30:30
172,Gladstone,-23.85,151.25,66.2,77,90,5.75,AU,2021-04-20 18:32:02
173,Goose Creek,32.981,-80.0326,75.99,33,75,16.11,US,2021-04-20 18:24:30
174,Gore,-46.1028,168.9436,51.01,82,13,1.01,NZ,2021-04-20 18:29:17
175,Grand Forks,47.9417,-97.4337,33.8,37,90,16.11,US,2021-04-20 18:31:42
176,Great Yarmouth,52.6083,1.7305,51.8,76,20,6.91,GB,2021-04-20 18:32:36
177,Greenwood,34.1668,-82.1165,73.0,40,75,12.66,US,2021-04-20 18:27:36
178,Grindavik,63.8424,-22.4338,41.0,60,40,9.22,IS,2021-04-20 18:29:14
179,Guerrero Negro,27.9769,-114.0611,71.87,49,22,10.71,MX,2021-04-20 18:29:08
180,Haines Junction,60.7522,-137.5108,48.2,43,100,3.44,CA,2021-04-20 18:33:26
181,Halifax,44.6453,-63.5724,59.0,58,20,13.8,CA,2021-04-20 18:25:54
182,Hambantota,6.1241,81.1185,78.8,100,20,2.3,LK,2021-04-20 18:32:45
183,Hamilton,39.1834,-84.5333,64.0,48,1,3.44,US,2021-04-20 18:28:41
184,Harper,4.375,-7.7169,81.99,78,19,6.96,LR,2021-04-20 18:33:06
185,Hasaki,35.7333,140.8333,50.0,87,20,3.44,JP,2021-04-20 18:30:39
186,Henties Bay,-22.116,14.2845,72.91,62,63,12.15,NA,2021-04-20 18:34:21
187,Hermanus,-34.4187,19.2345,64.0,80,47,4.0,ZA,2021-04-20 18:28:33
188,Hermosillo,29.0667,-110.9667,90.0,10,1,5.75,MX,2021-04-20 18:32:09
189,Hilo,19.7297,-155.09,77.0,65,1,4.61,US,2021-04-20 18:28:43
190,Hirara,24.8,125.2833,71.2,77,100,19.91,JP,2021-04-20 18:32:27
191,Hithadhoo,-0.6,73.0833,82.9,65,95,5.7,MV,2021-04-20 18:29:00
192,Hobart,-42.8794,147.3294,39.2,87,8,10.36,AU,2021-04-20 18:26:07
193,Hobyo,5.3505,48.5268,84.04,69,75,13.62,SO,2021-04-20 18:32:11
194,Hofn,64.2539,-15.2082,39.85,43,0,0.74,IS,2021-04-20 18:31:29
195,Hollins,37.3413,-79.9431,73.4,28,20,11.5,US,2021-04-20 18:29:22
196,Hong Kong,22.2855,114.1577,73.99,83,47,1.01,HK,2021-04-20 18:24:26
197,Horki,54.2861,30.9842,40.17,93,100,8.66,BY,2021-04-20 18:28:19
198,Hualmay,-11.0964,-77.6139,73.87,72,8,12.19,PE,2021-04-20 18:30:28
199,Huarmey,-10.0681,-78.1522,75.34,70,7,12.59,PE,2021-04-20 18:32:28
200,Huilong,31.8111,121.655,62.01,90,92,4.0,CN,2021-04-20 18:34:15
201,Husavik,66.0449,-17.3389,39.2,45,40,9.22,IS,2021-04-20 18:28:20
202,Hāflong,25.1833,93.0333,69.13,49,1,1.07,IN,2021-04-20 18:32:25
203,Hāngal,14.7667,75.1333,75.15,79,49,12.84,IN,2021-04-20 18:29:18
204,Ilulissat,69.2167,-51.1,17.6,73,40,6.91,GL,2021-04-20 18:28:13
205,Ingham,42.6,-84.3833,37.99,52,90,5.75,US,2021-04-20 18:32:28
206,Inhambane,-23.865,35.3833,70.45,84,17,7.49,MZ,2021-04-20 18:33:45
207,Inuvik,68.3499,-133.7218,21.2,79,100,18.41,CA,2021-04-20 18:23:59
208,Invermere,50.5167,-116.0354,48.0,39,39,5.99,CA,2021-04-20 18:30:57
209,Iquitos,-3.7481,-73.2472,80.6,83,40,4.61,PE,2021-04-20 18:29:07
210,Isangel,-19.55,169.2667,77.38,87,66,11.43,VU,2021-04-20 18:33:50
211,Iskateley,67.6803,53.1512,28.54,90,66,8.66,RU,2021-04-20 18:30:24
212,Islamkot,24.6997,70.177,80.06,42,0,12.39,PK,2021-04-20 18:33:42
213,Itarema,-2.9248,-39.9167,81.25,77,61,9.33,BR,2021-04-20 18:33:00
214,Itoman,26.1247,127.6694,69.8,68,40,11.5,JP,2021-04-20 18:34:26
215,Iwanai,42.9744,140.5089,38.05,54,39,10.83,JP,2021-04-20 18:29:09
216,Jalu,29.0331,21.5482,68.92,21,3,9.91,LY,2021-04-20 18:32:07
217,Jamame,0.0722,42.7506,80.96,76,48,9.19,SO,2021-04-20 18:33:08
218,Jamestown,42.097,-79.2353,41.0,87,90,8.05,US,2021-04-20 18:25:08
219,Jerantut,3.936,102.3626,74.12,98,99,0.74,MY,2021-04-20 18:34:53
220,Jiayuguan City,39.8167,98.3,54.3,20,99,5.21,CN,2021-04-20 18:34:20
221,Jiuquan,39.7432,98.5174,55.17,20,100,4.45,CN,2021-04-20 18:31:34
222,Juli,-16.2167,-69.45,50.61,46,2,7.96,PE,2021-04-20 18:32:23
223,Jumla,29.2747,82.1838,51.69,28,100,5.75,NP,2021-04-20 18:30:08
224,Junction City,39.0286,-96.8314,44.6,45,40,11.5,US,2021-04-20 18:28:52
225,Kabinda,-6.1333,24.4833,68.81,91,100,1.63,CD,2021-04-20 18:32:30
226,Kahului,20.8947,-156.47,75.2,88,20,3.44,US,2021-04-20 18:32:20
227,Kaitangata,-46.2817,169.8464,46.06,86,7,4.9,NZ,2021-04-20 18:30:08
228,Kaiyuan,23.6977,103.3037,63.28,72,0,5.19,CN,2021-04-20 18:31:29
229,Kalmunai,7.4167,81.8167,79.95,80,31,3.02,LK,2021-04-20 18:32:29
230,Kanniyākumāri,8.0833,77.5667,82.11,81,63,14.74,IN,2021-04-20 18:32:07
231,Kapaa,22.0752,-159.319,77.0,83,75,4.61,US,2021-04-20 18:28:36
232,Kapuskasing,49.4169,-82.4331,15.8,73,100,11.5,CA,2021-04-20 18:31:43
233,Karratha,-20.7377,116.8463,75.47,57,1,6.42,AU,2021-04-20 18:29:20
234,Kashgar,39.4547,75.9797,64.4,19,89,13.42,CN,2021-04-20 18:29:05
235,Kassala,15.451,36.4,95.56,15,11,8.81,SD,2021-04-20 18:34:20
236,Katobu,-4.9408,122.5276,73.4,91,91,1.12,ID,2021-04-20 18:29:11
237,Katsuura,35.1333,140.3,60.8,63,0,3.44,JP,2021-04-20 18:28:16
238,Kavaratti,10.5669,72.642,84.2,69,98,7.85,IN,2021-04-20 18:33:18
239,Kavieng,-2.5744,150.7967,82.15,74,100,4.61,PG,2021-04-20 18:28:27
240,Kazachinskoye,57.6953,93.2761,21.67,88,100,11.43,RU,2021-04-20 18:30:39
241,Kazanskaya,45.4106,40.4361,55.0,68,90,14.16,RU,2021-04-20 18:30:59
242,Kenai,60.5544,-151.2583,44.6,75,75,10.36,US,2021-04-20 18:33:21
243,Ketchikan,55.3422,-131.6461,53.6,66,1,12.66,US,2021-04-20 18:34:49
244,Khabary,53.6259,79.5345,25.77,54,48,8.37,RU,2021-04-20 18:34:00
245,Kharabali,47.4196,47.2568,58.35,61,100,21.47,RU,2021-04-20 18:34:22
246,Khatanga,71.9667,102.5,-13.4,100,96,2.1,RU,2021-04-20 18:28:48
247,Khovd,48.0056,91.6419,49.3,42,54,13.31,MN,2021-04-20 18:30:52
248,Kieta,-6.2167,155.6333,79.99,82,80,2.26,PG,2021-04-20 18:29:00
249,Kindu,-2.95,25.95,67.93,99,100,1.36,CD,2021-04-20 18:33:41
250,Kjøllefjord,70.9457,27.3465,46.4,53,0,23.02,NO,2021-04-20 18:34:14
251,Kloulklubed,7.0419,134.2556,75.2,94,75,3.44,PW,2021-04-20 18:33:38
252,Klyuchi,52.2667,79.1667,25.45,43,0,4.25,RU,2021-04-20 18:32:11
253,Kofelē,7.0667,38.7833,53.37,61,37,10.51,ET,2021-04-20 18:32:29
254,Kondinskoye,59.6481,67.41,31.03,91,16,7.0,RU,2021-04-20 18:32:38
255,Kontagora,10.3999,5.4695,89.83,38,99,1.74,NG,2021-04-20 18:33:08
256,Korla,41.7597,86.1469,64.22,28,95,3.02,CN,2021-04-20 18:32:32
257,Kovdor,67.5662,30.4758,36.36,90,91,7.38,RU,2021-04-20 18:32:39
258,Krasnosel'kup,65.7,82.4667,-4.99,99,6,6.91,RU,2021-04-20 18:33:51
259,Krasnozavodsk,56.45,38.2167,38.25,96,100,11.34,RU,2021-04-20 18:32:40
260,Krasnyy Kut,50.95,46.9667,45.41,82,100,25.52,RU,2021-04-20 18:34:15
261,Kropotkin,45.4375,40.5756,55.0,68,89,13.31,RU,2021-04-20 18:30:28
262,Kruisfontein,-34.0033,24.7314,66.0,79,92,1.99,ZA,2021-04-20 18:29:19
263,Krumovgrad,41.4667,25.65,54.0,79,96,1.01,BG,2021-04-20 18:33:23
264,Kuching,1.55,110.3333,75.2,94,20,2.46,MY,2021-04-20 18:32:36
265,Kumul,42.8,93.45,64.96,25,7,6.17,CN,2021-04-20 18:30:30
266,Kungurtug,50.5994,97.5228,29.44,95,100,3.89,RU,2021-04-20 18:28:29
267,Kununurra,-15.7667,128.7333,66.2,94,68,3.44,AU,2021-04-20 18:29:13
268,Kyra,49.5776,111.9753,45.64,36,6,2.93,RU,2021-04-20 18:32:21
269,La Orilla,17.9833,-102.2333,84.11,33,96,9.17,MX,2021-04-20 18:29:10
270,La Palma,33.8464,-118.0467,71.01,63,20,12.66,US,2021-04-20 18:33:23
271,La Rioja,42.25,-2.5,61.0,48,40,3.44,ES,2021-04-20 18:31:52
272,La Santisima Trinidad,-14.8333,-64.9,89.6,58,40,4.61,BO,2021-04-20 18:28:56
273,Lago da Pedra,-4.3333,-45.1667,81.14,80,96,1.95,BR,2021-04-20 18:32:17
274,Lagoa,39.05,-27.9833,61.39,89,100,19.91,PT,2021-04-20 18:30:40
275,Laguna,38.421,-121.4238,69.01,48,1,11.5,US,2021-04-20 18:32:29
276,Lake Charles,30.2131,-93.2044,77.0,38,1,8.05,US,2021-04-20 18:32:33
277,Lakes Entrance,-37.8811,147.981,46.0,85,63,1.01,AU,2021-04-20 18:28:26
278,Lakhtinskiy,59.9911,30.1597,50.0,34,0,4.47,RU,2021-04-20 18:30:12
279,Lakhīmpur,27.95,80.7667,88.9,13,100,8.01,IN,2021-04-20 18:29:49
280,Lamar,33.6668,-95.5836,59.0,54,1,17.27,US,2021-04-20 18:29:51
281,Lambaréné,-0.7001,10.2406,77.38,84,68,2.68,GA,2021-04-20 18:32:12
282,Lapa,-25.7697,-49.7158,68.0,72,75,11.5,BR,2021-04-20 18:30:10
283,Lar,26.2039,83.9717,88.5,12,100,4.79,IN,2021-04-20 18:32:26
284,Lata,40.1629,-8.3327,60.8,72,75,10.36,PT,2021-04-20 18:30:56
285,Lavrentiya,65.5833,-171.0,18.25,72,100,2.55,RU,2021-04-20 18:30:23
286,Lebu,-37.6167,-73.65,56.07,88,100,6.93,CL,2021-04-20 18:29:02
287,Leningradskiy,69.3833,178.4167,23.32,68,87,6.08,RU,2021-04-20 18:32:39
288,Les Cayes,18.2,-73.75,84.27,59,0,11.83,HT,2021-04-20 18:32:46
289,Lewiston,44.1003,-70.2148,64.99,36,75,9.22,US,2021-04-20 18:32:39
290,León,21.1167,-101.6667,84.0,11,20,9.22,MX,2021-04-20 18:29:51
291,Lhokseumawe,5.1801,97.1507,79.84,83,100,4.99,ID,2021-04-20 18:30:27
292,Lithakia,37.7167,20.8333,57.2,58,20,3.44,GR,2021-04-20 18:31:43
293,Liverpool,53.4106,-2.9779,59.0,51,100,11.5,GB,2021-04-20 18:29:25
294,Lobito,-12.3481,13.5456,81.57,85,13,1.36,AO,2021-04-20 18:34:24
295,Lodwar,3.1191,35.5973,87.93,41,84,19.51,KE,2021-04-20 18:29:46
296,Logansport,40.7545,-86.3567,35.6,100,90,8.77,US,2021-04-20 18:31:40
297,Lokosovo,61.1333,74.8167,22.57,94,91,11.1,RU,2021-04-20 18:31:37
298,Longyearbyen,78.2186,15.6401,26.6,74,75,6.91,SJ,2021-04-20 18:29:51
299,Lorengau,-2.0226,147.2712,81.0,79,100,10.8,PG,2021-04-20 18:28:49
300,Louis Trichardt,-23.0439,29.9032,56.41,89,27,4.85,ZA,2021-04-20 18:28:49
301,Loíza,18.4313,-65.8802,89.6,51,20,18.41,PR,2021-04-20 18:32:25
302,Luanda,-8.8368,13.2343,78.8,89,40,2.3,AO,2021-04-20 18:27:03
303,Luangwa,-15.6167,30.4167,67.8,72,48,0.69,ZM,2021-04-20 18:30:57
304,Lubango,-14.9172,13.4925,61.63,43,6,3.29,AO,2021-04-20 18:32:20
305,Lundazi,-12.2929,33.1782,62.38,88,100,7.34,ZM,2021-04-20 18:34:23
306,Lüderitz,-26.6481,15.1594,70.48,61,4,7.76,NA,2021-04-20 18:29:05
307,Maceió,-9.6658,-35.7353,82.4,69,75,10.36,BR,2021-04-20 18:30:41
308,Magistral'nyy,56.1725,107.4458,22.06,85,100,3.47,RU,2021-04-20 18:33:33
309,Mahibadhoo,3.7833,72.9667,82.98,65,99,5.97,MV,2021-04-20 18:31:49
310,Mahon,39.8885,4.2658,57.2,88,20,5.75,ES,2021-04-20 18:34:31
311,Mahébourg,-20.4081,57.7,78.8,89,75,5.86,MU,2021-04-20 18:31:53
312,Makakilo City,21.3469,-158.0858,75.99,69,1,4.61,US,2021-04-20 18:33:10
313,Mangai,-4.05,19.5333,70.79,98,100,3.31,CD,2021-04-20 18:25:02
314,Manicoré,-5.8092,-61.3003,89.6,62,0,4.61,BR,2021-04-20 18:34:23
315,Maniitsoq,65.4167,-52.9,28.99,82,100,3.18,GL,2021-04-20 18:32:17
316,Maningrida,-12.0667,134.2667,75.58,87,29,4.14,AU,2021-04-20 18:32:25
317,Manzanillo,20.3433,-77.1167,95.47,30,0,7.83,CU,2021-04-20 18:28:26
318,Manzhouli,49.6,117.4333,49.71,33,7,5.19,CN,2021-04-20 18:33:30
319,Mar del Plata,-38.0023,-57.5575,71.6,73,40,18.41,AR,2021-04-20 18:23:57
320,Maragogi,-9.0122,-35.2225,81.37,76,73,7.45,BR,2021-04-20 18:33:30
321,Margate,51.3813,1.3862,46.0,87,20,1.99,GB,2021-04-20 18:28:12
322,Marshall,34.3834,-86.3333,71.6,33,1,8.05,US,2021-04-20 18:34:25
323,Marsá Maţrūḩ,31.3525,27.2453,62.6,63,75,17.27,EG,2021-04-20 18:33:35
324,Masuguru,-11.3667,38.4167,71.51,96,100,3.11,TZ,2021-04-20 18:30:22
325,Matara,5.9485,80.5353,77.43,88,78,7.43,LK,2021-04-20 18:28:40
326,Mataura,-46.1927,168.8643,51.01,82,16,1.01,NZ,2021-04-20 18:28:11
327,Mattru,7.6244,-11.8332,82.56,75,38,7.02,SL,2021-04-20 18:30:56
328,Maumere,-8.6199,122.2111,76.66,75,9,4.63,ID,2021-04-20 18:32:08
329,Mayo,38.8876,-76.5119,75.0,46,1,12.66,US,2021-04-20 18:32:37
330,Mayor Pablo Lagerenza,-19.9309,-60.7718,93.6,34,11,6.02,PY,2021-04-20 18:28:14
331,Mayumba,-3.432,10.6554,79.68,83,85,3.49,GA,2021-04-20 18:28:35
332,Mazagão,-0.115,-51.2894,87.8,66,40,6.91,BR,2021-04-20 18:30:29
333,Melfi,40.9965,15.6514,43.0,100,90,10.36,IT,2021-04-20 18:34:35
334,Micheweni,-4.9667,39.8333,78.89,82,99,16.6,TZ,2021-04-20 18:31:52
335,Minot,48.2325,-101.2963,35.6,48,90,11.5,US,2021-04-20 18:32:17
336,Moerai,-22.4333,-151.3333,77.0,71,94,17.27,PF,2021-04-20 18:29:48
337,Molteno,-31.3968,26.3625,56.39,51,57,3.51,ZA,2021-04-20 18:34:40
338,Moose Factory,51.2585,-80.6094,17.6,86,90,23.02,CA,2021-04-20 18:28:55
339,Morón,-34.6534,-58.6198,77.0,53,40,13.8,AR,2021-04-20 18:32:02
340,Mossamedes,-15.1961,12.1522,80.85,83,19,6.85,AO,2021-04-20 18:30:21
341,Mount Isa,-20.7333,139.5,75.2,25,8,18.41,AU,2021-04-20 18:28:52
342,Mulchén,-37.7167,-72.2333,68.0,45,75,6.91,CL,2021-04-20 18:29:09
343,Mumbwa,-14.9783,27.0619,60.93,74,29,5.88,ZM,2021-04-20 18:33:26
344,Muros,42.7762,-9.0603,59.0,88,85,6.29,ES,2021-04-20 18:30:21
345,Muzhi,65.3667,64.6667,24.69,93,78,5.06,RU,2021-04-20 18:30:28
346,Mwene-Ditu,-7.0,23.45,67.05,94,100,2.26,CD,2021-04-20 18:30:25
347,Myaundzha,63.0494,147.1858,23.45,95,100,4.25,RU,2021-04-20 18:32:26
348,Nadym,65.5333,72.5167,5.02,98,42,3.4,RU,2021-04-20 18:29:48
349,Namie,37.4833,141.0,48.0,82,0,6.85,JP,2021-04-20 18:30:25
350,Nanortalik,60.1432,-45.2371,35.31,75,100,6.08,GL,2021-04-20 18:28:13
351,Narsaq,60.9167,-46.05,42.8,39,75,6.91,GL,2021-04-20 18:32:38
352,Navolato,24.7672,-107.6944,88.0,28,1,9.22,MX,2021-04-20 18:34:18
353,Naze,28.3667,129.4833,63.64,64,35,13.09,JP,2021-04-20 18:33:39
354,Neftçala,39.3742,49.2472,61.77,75,93,10.22,AZ,2021-04-20 18:29:02
355,Nelson Bay,-32.7167,152.15,57.2,62,5,14.97,AU,2021-04-20 18:30:50
356,New Norfolk,-42.7826,147.0587,39.0,81,6,3.0,AU,2021-04-20 18:28:17
357,Nhulunbuy,-12.2333,136.7667,77.0,94,90,3.44,AU,2021-04-20 18:29:04
358,Nianzishan,47.5167,122.8833,48.43,33,26,10.58,CN,2021-04-20 18:32:57
359,Nikolskoye,59.7035,30.7861,50.0,34,0,4.47,RU,2021-04-20 18:29:09
360,Nizhniy Lomov,53.5304,43.6766,40.89,88,100,26.22,RU,2021-04-20 18:32:38
361,Nome,64.5011,-165.4064,30.2,47,1,4.61,US,2021-04-20 18:32:12
362,Norman Wells,65.282,-126.8329,33.8,75,20,24.16,CA,2021-04-20 18:29:04
363,Northam,51.0333,-4.2167,53.01,72,97,1.01,GB,2021-04-20 18:32:31
364,Nouadhibou,20.931,-17.0347,68.0,77,0,21.85,MR,2021-04-20 18:30:00
365,Novobirilyussy,56.9514,90.6661,14.72,94,40,5.77,RU,2021-04-20 18:33:20
366,Nurota,40.5614,65.6886,62.6,48,97,13.8,UZ,2021-04-20 18:32:18
367,Nyaunglebin,17.95,96.7333,78.87,73,2,5.91,MM,2021-04-20 18:30:28
368,Nyurba,63.2842,118.3319,-7.49,100,94,3.4,RU,2021-04-20 18:32:21
369,Ogembo,-0.7984,34.7253,61.27,96,100,2.1,KE,2021-04-20 18:30:27
370,Ol'ga,43.7444,135.2892,36.18,39,0,4.09,RU,2021-04-20 18:32:07
371,Omboué,-1.5746,9.2618,79.59,82,85,5.03,GA,2021-04-20 18:30:22
372,Omsukchan,62.5333,155.8,15.75,98,95,7.31,RU,2021-04-20 18:30:41
373,Oranjestad,12.524,-70.027,87.8,55,20,26.46,AW,2021-04-20 18:28:08
374,Ordynskoye,54.3656,81.8994,26.47,52,97,8.9,RU,2021-04-20 18:32:59
375,Orikum,40.3253,19.4714,53.55,65,16,4.16,AL,2021-04-20 18:34:18
376,Oruro,-17.9833,-67.15,66.2,34,20,10.36,BO,2021-04-20 18:28:51
377,Ostrovnoy,68.0531,39.5131,35.29,71,0,22.39,RU,2021-04-20 18:32:09
378,Otjimbingwe,-22.35,16.1333,78.33,27,7,4.79,NA,2021-04-20 18:29:03
379,Ouadda,8.0777,22.4007,73.9,76,100,7.02,CF,2021-04-20 18:32:18
380,Oyama,36.3,139.8,64.0,66,20,8.05,JP,2021-04-20 18:28:37
381,Pacific Grove,36.6177,-121.9166,53.01,93,100,1.01,US,2021-04-20 18:32:58
382,Pahrump,36.2083,-115.9839,82.0,10,54,11.99,US,2021-04-20 18:26:02
383,Palmer,42.1584,-72.3287,71.6,26,75,14.97,US,2021-04-20 18:27:04
384,Panabá,21.2833,-88.2667,93.92,43,52,4.12,MX,2021-04-20 18:29:18
385,Pangai,-19.8,-174.35,77.0,88,20,3.44,TO,2021-04-20 18:34:19
386,Pangnirtung,66.1451,-65.7125,19.4,86,90,2.3,CA,2021-04-20 18:31:39
387,Pekan,3.4836,103.3996,77.0,94,20,2.3,MY,2021-04-20 18:28:51
388,Peniche,39.3558,-9.3811,61.0,76,55,11.01,PT,2021-04-20 18:31:30
389,Perth,-31.9333,115.8333,60.01,88,0,8.05,AU,2021-04-20 18:31:51
390,Pevek,69.7008,170.3133,20.89,68,76,18.23,RU,2021-04-20 18:29:17
391,Pisco,-13.7,-76.2167,75.2,64,0,18.41,PE,2021-04-20 18:32:07
392,Pitimbu,-7.4706,-34.8086,84.2,79,40,10.36,BR,2021-04-20 18:30:50
393,Plettenberg Bay,-34.0527,23.3716,65.16,82,11,3.44,ZA,2021-04-20 18:30:21
394,Pochutla,15.7432,-96.4661,90.0,51,20,11.5,MX,2021-04-20 18:28:17
395,Ponta do Sol,32.6667,-17.1,64.0,68,47,3.0,PT,2021-04-20 18:29:50
396,Poronaysk,49.2167,143.1167,33.33,76,100,19.42,RU,2021-04-20 18:29:11
397,Port Alfred,-33.5906,26.891,68.67,80,88,23.11,ZA,2021-04-20 18:29:12
398,Port Blair,11.6667,92.75,81.37,71,38,1.9,IN,2021-04-20 18:28:21
399,Port Elizabeth,-33.918,25.5701,64.4,88,0,13.8,ZA,2021-04-20 18:29:04
400,Port Hardy,50.6996,-127.4199,50.0,87,90,5.75,CA,2021-04-20 18:29:01
401,Port Keats,-14.25,129.55,77.58,60,85,2.42,AU,2021-04-20 18:23:55
402,Port Lincoln,-34.7333,135.8667,53.28,61,9,2.77,AU,2021-04-20 18:33:42
403,Portland,45.5234,-122.6762,69.01,34,20,9.22,US,2021-04-20 18:28:15
404,Porto-Novo,6.4965,2.6036,86.0,74,40,9.22,BJ,2021-04-20 18:33:32
405,Poso,-1.3959,120.7524,79.0,82,94,4.61,ID,2021-04-20 18:28:42
406,Praia,14.9215,-23.5087,75.2,60,0,21.85,CV,2021-04-20 18:29:20
407,Praia da Vitória,38.7333,-27.0667,71.6,56,20,13.42,PT,2021-04-20 18:29:08
408,Presidente Dutra,-5.29,-44.49,81.86,73,91,1.01,BR,2021-04-20 18:32:34
409,Prince George,53.9166,-122.753,52.0,34,1,3.11,CA,2021-04-20 18:32:56
410,Prince Rupert,54.3161,-130.3201,50.0,87,75,4.61,CA,2021-04-20 18:30:39
411,Priverno,41.4691,13.1856,55.0,82,40,6.91,IT,2021-04-20 18:29:21
412,Provideniya,64.3833,-173.3,22.8,60,21,2.8,RU,2021-04-20 18:28:50
413,Puerto Ayora,-0.7393,-90.3518,82.4,74,40,18.41,EC,2021-04-20 18:28:21
414,Puerto del Rosario,28.5004,-13.8627,69.8,73,20,19.57,ES,2021-04-20 18:32:40
415,Punta Arenas,-53.15,-70.9167,50.0,53,40,23.02,CL,2021-04-20 18:28:23
416,Qaanaaq,77.484,-69.3632,3.65,70,50,6.11,GL,2021-04-20 18:28:38
417,Qaryat Sulūq,31.6682,20.2521,60.46,57,0,12.08,LY,2021-04-20 18:31:55
418,Quelimane,-17.8786,36.8883,77.0,83,75,9.22,MZ,2021-04-20 18:33:43
419,Quiroga,19.6667,-101.5333,77.0,7,10,4.0,MX,2021-04-20 18:32:37
420,Raahe,64.6833,24.4833,46.4,34,0,8.05,FI,2021-04-20 18:31:31
421,Rancho Palos Verdes,33.7445,-118.387,64.99,67,40,11.5,US,2021-04-20 18:28:57
422,Rawson,-43.3002,-65.1023,58.15,75,100,15.73,AR,2021-04-20 18:29:00
423,Ribeira Grande,38.5167,-28.7,66.2,82,40,17.27,PT,2021-04-20 18:28:40
424,Rigaud,45.4793,-74.3024,51.01,44,100,10.0,CA,2021-04-20 18:33:38
425,Rikitea,-23.1203,-134.9692,77.38,72,47,5.82,PF,2021-04-20 18:28:20
426,Roald,62.5833,6.1333,39.0,93,40,6.91,NO,2021-04-20 18:30:40
427,Rocha,-34.4833,-54.3333,69.46,73,12,12.53,UY,2021-04-20 18:31:26
428,Rosarito,32.3333,-117.0333,69.8,63,1,4.61,MX,2021-04-20 18:28:56
429,Russell,32.3502,-85.1999,73.4,35,20,5.75,US,2021-04-20 18:31:59
430,Río Gallegos,-51.6226,-69.2181,57.2,30,0,11.5,AR,2021-04-20 18:30:58
431,Røros,62.5747,11.3842,44.6,53,0,4.61,NO,2021-04-20 18:31:57
432,Rūdbār,30.15,62.6,77.9,18,0,22.24,AF,2021-04-20 18:32:24
433,Sabang,5.8933,95.3214,83.91,71,81,10.18,ID,2021-04-20 18:28:46
434,Sabha,27.0377,14.4283,75.74,23,100,10.71,LY,2021-04-20 18:32:06
435,Saint Anthony,45.0205,-93.218,41.0,41,90,14.97,US,2021-04-20 18:30:44
436,Saint George,37.1041,-113.5841,72.0,16,1,4.61,US,2021-04-20 18:25:12
437,Saint Paul Harbor,57.79,-152.4072,42.8,87,90,8.05,US,2021-04-20 18:28:28
438,Saint-Joseph,-21.3667,55.6167,75.2,88,75,9.22,RE,2021-04-20 18:32:27
439,Saint-Louis,16.3333,-15.0,105.8,17,0,4.61,SN,2021-04-20 18:33:53
440,Saint-Philippe,-21.3585,55.7679,75.2,88,75,9.22,RE,2021-04-20 18:28:47
441,Saint-Pierre,-21.3393,55.4781,75.2,88,75,9.22,RE,2021-04-20 18:28:53
442,Salalah,17.0151,54.0924,82.4,78,0,3.44,OM,2021-04-20 18:30:58
443,Salamiyah,35.0113,37.0532,69.98,47,7,4.79,SY,2021-04-20 18:32:23
444,Saldanha,-33.0117,17.9442,68.0,52,84,5.75,ZA,2021-04-20 18:24:35
445,San Cristobal,7.7669,-72.225,96.8,24,20,13.8,VE,2021-04-20 18:31:35
446,San Mateo del Mar,16.2,-95.0,84.22,57,37,6.51,MX,2021-04-20 18:32:22
447,San Patricio,28.017,-97.5169,78.8,44,1,2.39,US,2021-04-20 18:32:34
448,San Policarpo,12.1791,125.5072,76.73,87,100,6.44,PH,2021-04-20 18:28:54
449,San Rafael,-34.6177,-68.3301,78.1,48,43,15.12,AR,2021-04-20 18:26:18
450,Santa Cruz de La Palma,28.6835,-17.7642,69.8,73,75,17.27,ES,2021-04-20 18:28:35
451,Santa Cruz de la Sierra,-17.8,-63.1667,87.8,58,40,8.05,BO,2021-04-20 18:31:32
452,Santa Fe,-31.6333,-60.7,84.0,50,0,5.99,AR,2021-04-20 18:26:12
453,Sapernoye,60.7167,29.9505,39.0,60,21,4.5,RU,2021-04-20 18:34:21
454,Sarkand,45.41,79.9186,39.79,81,100,3.04,KZ,2021-04-20 18:33:50
455,Saskylakh,71.9167,114.0833,-18.04,100,80,2.1,RU,2021-04-20 18:30:32
456,Sechura,-5.5569,-80.8222,82.56,52,25,11.77,PE,2021-04-20 18:30:58
457,Segezha,63.7415,34.3222,32.85,85,46,5.75,RU,2021-04-20 18:34:32
458,Semnan,35.5729,53.3971,73.36,24,67,3.58,IR,2021-04-20 18:30:51
459,Sept-Îles,50.2001,-66.3821,44.6,87,75,13.8,CA,2021-04-20 18:34:52
460,Serro,-18.6047,-43.3794,76.55,61,99,2.59,BR,2021-04-20 18:30:54
461,Severo-Kuril'sk,50.6789,156.125,34.57,97,95,17.2,RU,2021-04-20 18:24:18
462,Sheopur,25.6667,76.7,82.15,33,99,7.61,IN,2021-04-20 18:33:19
463,Sheridan,44.8333,-106.9173,34.0,80,90,23.02,US,2021-04-20 18:28:34
464,Shimoda,34.6667,138.95,59.0,53,3,1.01,JP,2021-04-20 18:34:32
465,Sibolga,1.7427,98.7792,76.91,90,100,3.06,ID,2021-04-20 18:32:32
466,Sinjār,36.3209,41.8754,76.95,32,100,8.48,IQ,2021-04-20 18:29:10
467,Sisimiut,66.9395,-53.6735,25.9,63,3,6.69,GL,2021-04-20 18:34:16
468,Sistranda,63.7256,8.834,44.6,81,75,11.5,NO,2021-04-20 18:28:23
469,Sitka,57.0531,-135.33,44.6,81,75,10.36,US,2021-04-20 18:32:04
470,Sittwe,20.15,92.9,79.34,85,4,7.16,MM,2021-04-20 18:33:52
471,Skibbereen,51.55,-9.2667,48.2,87,75,1.14,IE,2021-04-20 18:33:11
472,Snyder,32.7179,-100.9176,42.8,49,90,20.71,US,2021-04-20 18:28:41
473,Sola,-13.8833,167.55,82.94,76,37,12.55,VU,2021-04-20 18:34:27
474,Souillac,-20.5167,57.5167,78.8,89,75,5.99,MU,2021-04-20 18:29:11
475,Srandakan,-7.9386,110.2506,74.25,84,4,3.91,ID,2021-04-20 18:30:07
476,Staňkov,49.5535,13.0698,53.6,62,75,2.3,CZ,2021-04-20 18:30:37
477,Stonewall,50.1344,-97.3268,32.0,55,75,18.41,CA,2021-04-20 18:34:18
478,Strezhevoy,60.7333,77.5889,23.0,86,75,8.95,RU,2021-04-20 18:32:06
479,Stryn,61.9045,6.7226,41.0,81,75,10.36,NO,2021-04-20 18:33:59
480,Stuart,27.1976,-80.2528,82.0,83,75,9.22,US,2021-04-20 18:28:51
481,Sulangan,11.1373,123.7228,82.38,77,100,14.16,PH,2021-04-20 18:28:46
482,Suntar,62.1444,117.6319,12.97,91,100,5.06,RU,2021-04-20 18:28:52
483,Sur,22.5667,59.5289,82.94,40,14,9.4,OM,2021-04-20 18:30:26
484,Suşehri,40.1644,38.0867,61.81,51,100,2.26,TR,2021-04-20 18:33:18
485,São Filipe,14.8961,-24.4956,73.04,74,98,13.8,CV,2021-04-20 18:28:28
486,São João da Barra,-21.6403,-41.0511,86.0,54,20,1.36,BR,2021-04-20 18:28:59
487,Sørland,67.667,12.6934,44.6,93,75,24.16,NO,2021-04-20 18:28:54
488,Sępólno Krajeńskie,53.452,17.5317,53.6,66,75,10.36,PL,2021-04-20 18:34:17
489,Tabou,4.423,-7.3528,83.82,73,62,8.08,CI,2021-04-20 18:29:33
490,Tacoronte,28.4769,-16.4102,69.01,88,40,20.71,ES,2021-04-20 18:31:22
491,Takanosu,40.2219,140.3694,40.95,77,0,5.3,JP,2021-04-20 18:28:25
492,Takoradze,4.8845,-1.7554,81.97,80,99,8.59,GH,2021-04-20 18:32:04
493,Talcahuano,-36.7167,-73.1167,55.4,94,90,8.05,CL,2021-04-20 18:31:53
494,Talnakh,69.4865,88.3972,-10.62,88,32,3.0,RU,2021-04-20 18:29:52
495,Taltal,-25.4,-70.4833,65.59,70,91,7.29,CL,2021-04-20 18:31:33
496,Tangshan,39.6333,118.1833,57.27,56,100,2.01,CN,2021-04-20 18:30:07
497,Tankāra,22.6667,70.7333,88.0,54,100,10.63,IN,2021-04-20 18:32:19
498,Tanout,14.9709,8.8879,88.03,6,4,3.09,NE,2021-04-20 18:32:36
499,Taoudenni,22.6783,-3.9836,95.25,7,1,9.78,ML,2021-04-20 18:29:21
500,Tari,12.4086,4.4914,97.59,22,52,5.88,NG,2021-04-20 18:32:08
501,Tasiilaq,65.6145,-37.6368,32.92,71,100,3.96,GL,2021-04-20 18:30:45
502,Taunggyi,20.7833,97.0333,66.58,40,0,2.08,MM,2021-04-20 18:24:43
503,Tautira,-17.7333,-149.15,82.4,74,40,3.44,PF,2021-04-20 18:34:54
504,Tazovsky,67.4667,78.7,-12.44,100,26,2.24,RU,2021-04-20 18:34:52
505,Te Anau,-45.4167,167.7167,45.82,92,66,1.19,NZ,2021-04-20 18:29:27
506,Tebingtinggi,3.3285,99.1625,78.8,94,40,2.3,ID,2021-04-20 18:28:58
507,Tegul'det,57.3064,88.1667,9.7,96,78,3.76,RU,2021-04-20 18:28:42
508,Tevaitoa,-16.7833,-151.5,81.59,72,19,12.53,PF,2021-04-20 18:31:27
509,Tezu,27.9167,96.1667,68.49,41,9,4.83,IN,2021-04-20 18:31:46
510,Thompson,55.7435,-97.8558,28.4,69,90,12.66,CA,2021-04-20 18:28:34
511,Tigil',57.8,158.6667,34.99,69,99,19.55,RU,2021-04-20 18:34:14
512,Tigzirt,36.8886,4.1198,59.7,67,35,7.16,DZ,2021-04-20 18:31:44
513,Tiksi,71.6872,128.8694,9.23,95,100,12.33,RU,2021-04-20 18:28:38
514,Tilichiki,60.4667,166.1,20.43,94,73,5.97,RU,2021-04-20 18:32:09
515,Torbay,47.6666,-52.7314,41.0,87,90,23.02,CA,2021-04-20 18:28:20
516,Tres Arroyos,-38.3739,-60.2798,73.81,47,0,17.49,AR,2021-04-20 18:31:28
517,Trincomalee,8.5711,81.2335,81.84,75,73,4.74,LK,2021-04-20 18:28:39
518,Tsimmerbude,54.675,20.1347,48.2,71,0,4.47,RU,2021-04-20 18:29:50
519,Tuatapere,-46.1333,167.6833,51.01,82,23,1.01,NZ,2021-04-20 18:28:49
520,Tucumcari,35.1717,-103.725,42.8,39,40,18.41,US,2021-04-20 18:28:42
521,Tuktoyaktuk,69.4541,-133.0374,19.4,79,90,23.02,CA,2021-04-20 18:29:57
522,Turgoyak,55.15,60.1183,32.65,59,0,4.23,RU,2021-04-20 18:34:17
523,Tutóia,-2.7619,-42.2744,84.2,74,75,8.05,BR,2021-04-20 18:34:31
524,Tweed,44.4751,-77.3162,42.01,59,100,7.0,CA,2021-04-20 18:30:05
525,Ulundi,-28.3352,31.4162,59.77,94,9,1.95,ZA,2021-04-20 18:33:48
526,Umluj,25.0213,37.2685,85.01,40,100,5.55,SA,2021-04-20 18:34:24
527,Umm Hājar,13.2954,19.6966,95.16,7,0,8.21,TD,2021-04-20 18:33:07
528,Upernavik,72.7868,-56.1549,14.9,68,100,3.13,GL,2021-04-20 18:29:33
529,Urengoy,65.9667,78.3667,-5.6,100,19,3.83,RU,2021-04-20 18:31:55
530,Ushuaia,-54.8,-68.3,48.2,61,20,6.91,AR,2021-04-20 18:28:31
531,Uíge,-7.6087,15.0613,68.04,94,100,4.83,AO,2021-04-20 18:33:07
532,Vadlapūdi,14.3167,79.8,85.05,65,24,8.14,IN,2021-04-20 18:28:36
533,Vaini,-21.2,-175.2,69.8,100,75,2.3,TO,2021-04-20 18:28:25
534,Vaitape,-16.5167,-151.75,81.72,72,50,13.2,PF,2021-04-20 18:28:56
535,Valleyview,55.0667,-117.2859,53.6,32,39,10.36,CA,2021-04-20 18:33:29
536,Vanderhoof,54.0166,-124.0198,57.31,39,9,3.8,CA,2021-04-20 18:34:00
537,Vanimo,-2.6741,141.3028,77.07,89,92,5.35,PG,2021-04-20 18:28:33
538,Vao,-22.6667,167.4833,73.24,64,30,10.09,NC,2021-04-20 18:28:46
539,Vardø,70.3705,31.1107,48.2,46,0,16.11,NO,2021-04-20 18:28:50
540,Verkhniy Rohachyk,47.2505,34.338,48.24,89,100,9.82,UA,2021-04-20 18:32:08
541,Verkhnyaya Toyma,62.2349,44.9985,36.36,72,6,4.56,RU,2021-04-20 18:31:28
542,Vermilion,40.1667,-87.7506,33.8,100,90,8.05,US,2021-04-20 18:31:47
543,Vestmannaeyjar,63.4427,-20.2734,39.2,60,75,4.61,IS,2021-04-20 18:33:23
544,Vila Velha,-20.3297,-40.2925,79.0,73,75,8.05,BR,2021-04-20 18:28:47
545,Villa Constitución,-33.2278,-60.3297,82.0,51,1,13.0,AR,2021-04-20 18:32:35
546,Viranşehir,37.2353,39.7631,67.98,43,8,7.11,TR,2021-04-20 18:32:30
547,Vostok,46.4856,135.8833,27.23,50,1,7.34,RU,2021-04-20 18:28:32
548,Wajima,37.4,136.9,49.12,59,0,1.39,JP,2021-04-20 18:33:13
549,Walvis Bay,-22.9575,14.5053,78.8,44,1,15.41,NA,2021-04-20 18:34:55
550,Wanlaweyn,2.6185,44.8938,82.53,68,97,14.27,SO,2021-04-20 18:29:08
551,Warmbad,-28.45,18.7333,78.6,17,3,8.19,NA,2021-04-20 18:34:50
552,Watertown,42.3709,-71.1828,73.0,28,75,17.27,US,2021-04-20 18:28:45
553,Windsor,42.3001,-83.0165,39.0,93,90,8.05,CA,2021-04-20 18:30:00
554,Wiwilí,13.6268,-85.8254,77.0,78,75,7.2,NI,2021-04-20 18:30:51
555,Yangjiang,21.85,111.9667,72.68,88,100,8.43,CN,2021-04-20 18:33:32
556,Yataity del Norte,-24.8333,-56.35,88.54,28,0,4.76,PY,2021-04-20 18:30:06
557,Yatou,37.15,122.3833,50.04,53,100,3.65,CN,2021-04-20 18:34:21
558,Yellowknife,62.456,-114.3525,39.2,56,20,6.91,CA,2021-04-20 18:28:32
559,Yining,29.0361,114.5636,66.51,92,99,2.24,CN,2021-04-20 18:34:13
560,Yulara,-25.2406,130.9889,51.8,62,0,6.91,AU,2021-04-20 18:28:28
561,Yumbing,9.2393,124.6578,80.55,81,100,12.8,PH,2021-04-20 18:32:10
562,Zapolyarnyy,69.4154,30.8136,44.6,53,0,10.36,RU,2021-04-20 18:34:50
563,Zhanakorgan,43.9098,67.2495,49.73,66,10,17.96,KZ,2021-04-20 18:32:24
564,Zhangjiakou Shi Xuanhua Qu,40.6103,115.0447,57.78,46,100,5.41,CN,2021-04-20 18:30:34
565,Zheshart,62.0731,49.5733,36.28,67,12,3.06,RU,2021-04-20 18:32:19
566,Zhezkazgan,47.8043,67.7144,30.38,41,0,22.1,KZ,2021-04-20 18:32:16
567,Zhigansk,66.7697,123.3711,1.96,98,86,5.86,RU,2021-04-20 18:28:53
568,Zonguldak,41.25,31.8333,42.82,92,83,1.43,TR,2021-04-20 18:33:00
569,Äänekoski,62.6946,25.818,44.01,60,0,2.3,FI,2021-04-20 18:32:22
570,Ürümqi,43.801,87.6005,60.8,31,0,2.24,CN,2021-04-20 18:34:55
